"fod_id","fire_name","fire_year","discovery_date","fire_size","state","county","fips_code","fips_name","latitude","longitude","discovery_date_clean","month"
9094,"HOME",2006,1.148688e+12,0.01,"CA","111","06111","Ventura County",34.48694444,-119.30305556,2006-05-27,2006-05-01
8950,"GRILL",2006,1151884800000,4.3,"CA","111","06111","Ventura County",34.60111111,-119.35416667,2006-07-03,2006-07-01
8503,"CANYON",2006,1151193600000,26.5,"CA","111","06111","Ventura County",34.79333333,-119.33416667,2006-06-25,2006-06-01
10444,"BLUE",2006,1153267200000,0.1,"CA","111","06111","Ventura County",34.88694444,-119.23111111,2006-07-19,2006-07-01
10447,"MASH",2006,1.15344e+12,0.1,"CA","111","06111","Ventura County",34.78527778,-119.26027778,2006-07-21,2006-07-01
10458,"WATER",2006,1.15344e+12,1.2,"CA","111","06111","Ventura County",34.77555556,-119.27666667,2006-07-21,2006-07-01
10461,"LONG",2006,1.15344e+12,0.1,"CA","111","06111","Ventura County",34.785,-119.31916667,2006-07-21,2006-07-01
10466,"LOCK",2006,1153526400000,0.1,"CA","111","06111","Ventura County",34.71861111,-119.11916667,2006-07-22,2006-07-01
10470,"BOY",2006,1153526400000,4.8,"CA","111","06111","Ventura County",34.76583333,-119.17055556,2006-07-22,2006-07-01
10486,"MESA",2006,1153612800000,0.75,"CA","111","06111","Ventura County",34.79027778,-119.24138889,2006-07-23,2006-07-01
10498,"ADOBE",2006,1153785600000,4,"CA","111","06111","Ventura County",34.75944444,-119.0975,2006-07-25,2006-07-01
10427,"SQUIRREL",2006,1150243200000,0.25,"CA","111","06111","Ventura County",34.70388889,-119.30805556,2006-06-14,2006-06-01
10441,"SPRING",2006,1153180800000,0.25,"CA","111","06111","Ventura County",34.80944444,-119.1775,2006-07-18,2006-07-01
10442,"CAMP",2006,1153180800000,0.75,"CA","111","06111","Ventura County",34.80972222,-119.17861111,2006-07-18,2006-07-01
10443,"BRUSH",2006,1153267200000,0.1,"CA","111","06111","Ventura County",34.88777778,-119.22888889,2006-07-19,2006-07-01
9566,"FRIEND",2006,1153267200000,3,"CA","111","06111","Ventura County",34.49194444,-119.28388889,2006-07-19,2006-07-01
13695,"HIGHJACK",2006,1156204800000,1,"CA","111","06111","Ventura County",34.70194444,-119.31305556,2006-08-22,2006-08-01
13696,"GOLD",2006,1156550400000,2.65,"CA","111","06111","Ventura County",34.71722222,-118.93055556,2006-08-26,2006-08-01
14907,"DAY",2006,1.157328e+12,162702,"CA","111","06111","Ventura County",34.63222222,-118.76972222,2006-09-04,2006-09-01
19095,"QUARRY",2007,1179878400000,0.1,"CA","111","06111","Ventura County",34.50083333,-119.30916667,2007-05-23,2007-05-01
18891,"EARLY",2007,1.176336e+12,0.2,"CA","111","06111","Ventura County",34.50222222,-119.35027778,2007-04-12,2007-04-01
18917,"CHERRY",2007,1177718400000,7,"CA","111","06111","Ventura County",34.60194444,-119.34055556,2007-04-28,2007-04-01
19072,"HOLIDAY",2007,1.17936e+12,0.1,"CA","111","06111","Ventura County",34.5175,-119.27777778,2007-05-17,2007-05-01
24954,"CASITAS",2007,1187308800000,0.1,"CA","111","06111","Ventura County",34.4,-119.37055556,2007-08-17,2007-08-01
26381,"RIVER",2007,1196294400000,12,"CA","111","06111","Ventura County",34.76638889,-119.42111111,2007-11-29,2007-11-01
28874,"FISHBOWLS",2008,1216166400000,1,"CA","111","06111","Ventura County",34.63194444,-119.16083333,2008-07-16,2008-07-01
27760,"POTEREO",2008,1.213488e+12,0.1,"CA","111","06111","Ventura County",34.58611111,-119.26888889,2008-06-15,2008-06-01
27315,"IRIS",2008,1209859200000,0.1,"CA","111","06111","Ventura County",34.80666667,-119.11305556,2008-05-04,2008-05-01
28065,"CASITAS 2",2008,1.215216e+12,0.25,"CA","111","06111","Ventura County",34.40861111,-119.33472222,2008-07-05,2008-07-01
27893,"CASITAS",2008,1214697600000,0.2,"CA","111","06111","Ventura County",34.41027778,-119.33611111,2008-06-29,2008-06-01
29997,"CHERRY",2008,1.21824e+12,1,"CA","111","06111","Ventura County",34.43694444,-119.35972222,2008-08-09,2008-08-01
34195,"CAMP",2008,1229126400000,0.01,"CA","111","06111","Ventura County",34.80972222,-119.10972222,2008-12-13,2008-12-01
33751,"STRIP",2008,1222905600000,1.7,"CA","111","06111","Ventura County",34.75583333,-119.02777778,2008-10-02,2008-10-01
33276,"BRIDGE",2008,1225411200000,0.1,"CA","111","06111","Ventura County",34.48416667,-119.29916667,2008-10-31,2008-10-01
35514,"SMITH",2009,1244505600000,0.1,"CA","111","06111","Ventura County",34.72694444,-118.89,2009-06-09,2009-06-01
34956,"BALLINGER",2009,1236470400000,0.01,"CA","111","06111","Ventura County",34.88444444,-119.44333333,2009-03-08,2009-03-01
34958,"LOCKWOOD",2009,1240012800000,42,"CA","111","06111","Ventura County",34.80027778,-119.02083333,2009-04-18,2009-04-01
34627,"BOAT",2009,1.238976e+12,0.5,"CA","111","06111","Ventura County",34.41833333,-119.33888889,2009-04-06,2009-04-01
38069,"SULPHUR",2009,1247270400000,343,"CA","111","06111","Ventura County",34.69944444,-119.28666667,2009-07-11,2009-07-01
38070,"BLOCK",2009,1248307200000,0.1,"CA","111","06111","Ventura County",34.74666667,-119.12861111,2009-07-23,2009-07-01
39373,"VINTAGE",2009,1.250208e+12,150,"CA","111","06111","Ventura County",34.33194444,-119.30194444,2009-08-14,2009-08-01
39848,"MOUNTAIN",2009,1253318400000,0.1,"CA","111","06111","Ventura County",34.78833333,-119.00083333,2009-09-19,2009-09-01
38726,"CASITAS",2009,1252195200000,29.5,"CA","111","06111","Ventura County",34.38722222,-119.365,2009-09-06,2009-09-01
41462,"YELLOWJACKET",2009,1258243200000,15.6,"CA","111","06111","Ventura County",34.72027778,-119.05944444,2009-11-15,2009-11-01
41283,"DUFF",2009,1258675200000,0.01,"CA","111","06111","Ventura County",34.60222222,-119.23583333,2009-11-20,2009-11-01
1301190,"SIMI INCIDENT",2003,1.06704e+12,108204,"CA","Ventura ","06111","Ventura County",34.384722,-118.6675,2003-10-25,2003-10-01
1395401,NA,2006,1155859200000,1,"CA","VENTURA","06111","Ventura County",34.26111111,-118.71388888,2006-08-18,2006-08-01
1395403,"SHEKELL",2006,1.165104e+12,30000,"CA","VENTURA","06111","Ventura County",34.32888888,-118.90111111,2006-12-03,2006-12-01
1395430,NA,2006,1138492800000,10,"CA","VENTURA","06111","Ventura County",34.26194444,-118.915,2006-01-29,2006-01-01
1395432,NA,2006,1.143072e+12,0.3,"CA","VENTURA","06111","Ventura County",34.42694444,-118.93111111,2006-03-23,2006-03-01
1395433,NA,2006,1151798400000,2,"CA","VENTURA","06111","Ventura County",34.355,-118.68694444,2006-07-02,2006-07-01
1395434,NA,2008,1220227200000,1,"CA","VENTURA","06111","Ventura County",34.43888888,-119.14305555,2008-09-01,2008-09-01
1395435,NA,2008,1224806400000,3,"CA","VENTURA","06111","Ventura County",34.43111111,-119.12388888,2008-10-24,2008-10-01
1395437,NA,2008,1200182400000,1,"CA","VENTURA","06111","Ventura County",34.44,-119.12305555,2008-01-13,2008-01-01
1395438,NA,2008,1206921600000,4,"CA","VENTURA","06111","Ventura County",34.36305555,-119.32,2008-03-31,2008-03-01
1395439,NA,2008,1212364800000,1,"CA","VENTURA","06111","Ventura County",34.36888888,-119.305,2008-06-02,2008-06-01
1430274,"SHOOTER",2010,1276905600000,0.4,"CA","111","06111","Ventura County",34.8036111,-119.070556,2010-06-19,2010-06-01
1431758,"REYES",2010,1284681600000,0.1,"CA","111","06111","Ventura County",34.6788889,-119.3075,2010-09-17,2010-09-01
1428786,"BEAVER",2010,1262908800000,0.25,"CA","111","06111","Ventura County",34.5655556,-119.263333,2010-01-08,2010-01-01
1429726,"CHERRY",2010,1.279584e+12,0.2,"CA","111","06111","Ventura County",34.6075,-119.358333,2010-07-20,2010-07-01
1432619,"SNAKE",2010,1285372800000,0.1,"CA","111","06111","Ventura County",34.5002778,-119.344167,2010-09-25,2010-09-01
15001174,"LEIGHTON INC",2005,1124409600000,20.5,"CA","Ventura","06111","Ventura County",34.333333,-119.284167,2005-08-19,2005-08-01
201147832,NA,2011,1311465600000,27,"CA","VENTURA","06111","Ventura County",34.282689,-118.717709,2011-07-24,2011-07-01
201195407,NA,2011,1.309392e+12,4,"CA","VENTURA","06111","Ventura County",34.192907,-118.907655,2011-06-30,2011-06-01
201194591,NA,2011,1306972800000,0.01,"CA","VENTURA","06111","Ventura County",34.437458,-119.145876,2011-06-02,2011-06-01
201194893,NA,2011,1311897600000,7,"CA","VENTURA","06111","Ventura County",34.435048,-119.2646,2011-07-29,2011-07-01
201193148,NA,2011,1320451200000,0.02,"CA","VENTURA","06111","Ventura County",34.37321,-119.059696,2011-11-05,2011-11-01
201434217,"LONG",2012,1344038400000,0.1,"CA","111","06111","Ventura County",34.78527778,-119.30138889,2012-08-04,2012-08-01
201434218,"SITE 14",2012,1337990400000,0.01,"CA","111","06111","Ventura County",34.515,-119.27,2012-05-26,2012-05-01
201434220,"DOME",2012,1344038400000,0.1,"CA","111","06111","Ventura County",34.74805556,-119.23222222,2012-08-04,2012-08-01
201434224,"TINTA",2012,1338681600000,48,"CA","111","06111","Ventura County",34.705,-119.39277778,2012-06-03,2012-06-01
201434225,"GREEN",2012,1344038400000,0.01,"CA","111","06111","Ventura County",34.47916667,-118.91666667,2012-08-04,2012-08-01
201434227,"VALLEY",2012,1346630400000,65,"CA","111","06111","Ventura County",34.6925,-119.14361111,2012-09-03,2012-09-01
201434228,"HILL",2012,1340409600000,689,"CA","111","06111","Ventura County",34.73111111,-118.86833333,2012-06-23,2012-06-01
201434237,"CAMP",2012,1344038400000,0.01,"CA","111","06111","Ventura County",34.48027778,-118.91722222,2012-08-04,2012-08-01
201434238,"POLE",2012,1344038400000,0.25,"CA","111","06111","Ventura County",34.82861111,-119.40583333,2012-08-04,2012-08-01
201434241,"GOODENOUGH 2",2012,1344988800000,7.2,"CA","111","06111","Ventura County",34.46777778,-118.89333333,2012-08-15,2012-08-01
201434242,"LAKE",2012,1326844800000,0.25,"CA","111","06111","Ventura County",34.80611111,-119.02194444,2012-01-18,2012-01-01
201434243,"GRADE",2012,1.34784e+12,0.6,"CA","111","06111","Ventura County",34.73138889,-119.11472222,2012-09-17,2012-09-01
201434244,"ADAMS",2012,1.326672e+12,2.5,"CA","111","06111","Ventura County",34.74166667,-119.07972222,2012-01-16,2012-01-01
201434250,"BEAR CREEK",2012,1.344384e+12,0.01,"CA","111","06111","Ventura County",34.55972222,-119.10222222,2012-08-08,2012-08-01
201434252,"GOODENOUGH 1",2012,1.344384e+12,0.25,"CA","111","06111","Ventura County",34.46722222,-118.91777778,2012-08-08,2012-08-01
201434254,"GROUND",2012,1344470400000,0.1,"CA","111","06111","Ventura County",34.79,-119.00166667,2012-08-09,2012-08-01
201434256,"FISH",2012,1.343952e+12,0.1,"CA","111","06111","Ventura County",34.63111111,-119.08583333,2012-08-03,2012-08-01
201434260,"BLUE",2012,1344124800000,42,"CA","111","06111","Ventura County",34.51305556,-118.78944444,2012-08-05,2012-08-01
201434262,"SCOUT",2012,1347321600000,0.25,"CA","111","06111","Ventura County",34.76805556,-119.13527778,2012-09-11,2012-09-01
201434263,"SNOWY",2012,1.343952e+12,0.1,"CA","111","06111","Ventura County",34.64944444,-118.94166667,2012-08-03,2012-08-01
201663378,NA,2012,1331078400000,0.1,"CA","VENTURA","06111","Ventura County",34.289283,-118.879395,2012-03-07,2012-03-01
201764843,"MILL",2013,1362614400000,0.1,"CA","111","06111","Ventura County",34.81305556,-119.05166667,2013-03-07,2013-03-01
201765611,"JOHN",2013,1363564800000,0.1,"CA","111","06111","Ventura County",34.58638889,-119.27722222,2013-03-18,2013-03-01
201785629,"SANCTUARY",2013,1379635200000,27,"CA","Ventura","06111","Ventura County",34.459409,-118.85267,2013-09-20,2013-09-01
201761108,"CASITAS",2013,1377475200000,0.01,"CA","111","06111","Ventura County",34.41444444,-119.35777778,2013-08-26,2013-08-01
201762994,"LIME",2013,1368489600000,0.1,"CA","111","06111","Ventura County",34.50111111,-119.34444444,2013-05-14,2013-05-01
201762082,"GRADE",2013,1358553600000,0.01,"CA","111","06111","Ventura County",34.67777778,-119.11611111,2013-01-19,2013-01-01
201762357,"VISTA",2013,1376697600000,0.25,"CA","111","06111","Ventura County",34.87888889,-119.34388889,2013-08-17,2013-08-01
201762602,"SHEIDECK",2013,1367107200000,0.12,"CA","111","06111","Ventura County",34.68444444,-119.3125,2013-04-28,2013-04-01
201814886,NA,2013,1368921600000,912,"CA","VENTURA","06111","Ventura County",34.503787,-118.616166,2013-05-19,2013-05-01
201814257,NA,2013,1369094400000,0.1,"CA","VENTURA","06111","Ventura County",34.278993,-118.699039,2013-05-21,2013-05-01
201812074,NA,2013,1361404800000,0.1,"CA","VENTURA","06111","Ventura County",34.27169,-118.70895,2013-02-21,2013-02-01
201811673,NA,2013,1369612800000,15,"CA","VENTURA","06111","Ventura County",34.443847,-118.659595,2013-05-27,2013-05-01
201810704,NA,2013,1369699200000,8,"CA","VENTURA","06111","Ventura County",34.253065,-118.774735,2013-05-28,2013-05-01
201812109,NA,2013,1369526400000,0.01,"CA","VENTURA","06111","Ventura County",34.263767,-119.010798,2013-05-26,2013-05-01
201810763,NA,2013,1363996800000,0.75,"CA","VENTURA","06111","Ventura County",34.226751,-119.149159,2013-03-23,2013-03-01
300001014,"ROSE",2014,1.403568e+12,0.2,"CA","Ventura","06111","Ventura County",34.79694444,-119.045,2014-06-24,2014-06-01
300004005,"PARK",2014,1392595200000,0.1,"CA","Ventura","06111","Ventura County",34.72666667,-119.18333333,2014-02-17,2014-02-01
300004006,"MARSHALL",2014,1392076800000,0.25,"CA","Ventura","06111","Ventura County",34.68,-119.315,2014-02-11,2014-02-01
300004007,"CURTIS",2014,1.398816e+12,5,"CA","Ventura","06111","Ventura County",34.76694444,-119.075,2014-04-30,2014-04-01
300004008,"CABIN",2014,1390521600000,0.1,"CA","Ventura","06111","Ventura County",34.6875,-119.30361111,2014-01-24,2014-01-01
300004016,"FRAZIER",2014,1410652800000,0.5,"CA","Ventura","06111","Ventura County",34.79333333,-118.94444444,2014-09-14,2014-09-01
300004017,"SESPE",2014,1.408752e+12,0.1,"CA","Ventura","06111","Ventura County",34.56638889,-119.13333333,2014-08-23,2014-08-01
300004018,"FORK",2014,1398124800000,0.02,"CA","Ventura","06111","Ventura County",34.48944444,-119.30555556,2014-04-22,2014-04-01
300004019,"CASITAS",2014,1402963200000,0.01,"CA","Ventura","06111","Ventura County",34.40833333,-119.36388889,2014-06-17,2014-06-01
300004020,"BEAVER",2014,1412812800000,1,"CA","Ventura","06111","Ventura County",34.58055556,-119.2625,2014-10-09,2014-10-01
300004024,"VALLEY",2014,1399161600000,0.01,"CA","Ventura","06111","Ventura County",34.41388889,-119.33638889,2014-05-04,2014-05-01
300083904,NA,2014,1393286400000,0.01,"CA","VENTURA","06111","Ventura County",34.237939,-119.061367,2014-02-25,2014-02-01
300119423,NA,2014,1399161600000,0.01,"CA","VENTURA","06111","Ventura County",34.232983,-119.177125,2014-05-04,2014-05-01
300204398,"QUATAL",2015,1434931200000,1.2,"CA","111","06111","Ventura County",34.82416667,-119.4125,2015-06-22,2015-06-01
300204399,"BEE",2015,1435190400000,0.1,"CA","111","06111","Ventura County",34.51416667,-119.29305556,2015-06-25,2015-06-01
300204402,"RED",2015,1442534400000,0.1,"CA","111","06111","Ventura County",34.38333333,-119.35027778,2015-09-18,2015-09-01
300204403,"BURSON",2015,1441238400000,27,"CA","111","06111","Ventura County",34.47944444,-118.86833333,2015-09-03,2015-09-01
300204404,"FOOTHILL",2015,1449446400000,1,"CA","111","06111","Ventura County",34.46527778,-119.2525,2015-12-07,2015-12-01
300204416,"PIEDRA",2015,1438300800000,0.1,"CA","111","06111","Ventura County",34.63333333,-119.27333333,2015-07-31,2015-07-01
300204420,"REYES",2015,1438214400000,0.1,"CA","111","06111","Ventura County",34.6225,-119.24666667,2015-07-30,2015-07-01
300204422,"FRAZIER 2",2015,1441929600000,0.25,"CA","111","06111","Ventura County",34.77694444,-118.98861111,2015-09-11,2015-09-01
300204424,"FRAIZER 1",2015,1441756800000,0.1,"CA","111","06111","Ventura County",34.76388889,-118.98833333,2015-09-09,2015-09-01
300204427,"SEYMOUR",2015,1441843200000,0.08,"CA","111","06111","Ventura County",34.79694444,-119.10222222,2015-09-10,2015-09-01
300201883,"SNOW #4",2015,1441843200000,0.1,"CA","111","06111","Ventura County",34.65777778,-118.84611111,2015-09-10,2015-09-01
300201884,"SNOW #1",2015,1441756800000,3.4,"CA","111","06111","Ventura County",34.66833333,-118.85194444,2015-09-09,2015-09-01
300201885,"SNOW #3",2015,1441843200000,0.4,"CA","111","06111","Ventura County",34.65777778,-118.84611111,2015-09-10,2015-09-01
300201886,"SNOW #2",2015,1441843200000,6.5,"CA","111","06111","Ventura County",34.66055556,-118.84638889,2015-09-10,2015-09-01
300201887,"MUD",2015,1444780800000,0.1,"CA","111","06111","Ventura County",34.81916667,-119.38166667,2015-10-14,2015-10-01
300201890,"CHORRO",2015,1438473600000,282,"CA","111","06111","Ventura County",34.59694444,-119.33055556,2015-08-02,2015-08-01
300201891,"CASITAS",2015,1441324800000,0.1,"CA","111","06111","Ventura County",34.40833333,-119.35027778,2015-09-04,2015-09-01
300201897,"APACHE",2015,1441756800000,0.1,"CA","111","06111","Ventura County",34.78861111,-119.33472222,2015-09-09,2015-09-01
300201898,"LILY",2015,1441843200000,0.1,"CA","111","06111","Ventura County",34.76611111,-119.15777778,2015-09-10,2015-09-01
300149298,NA,2014,1.404864e+12,0.01,"CA","VENTURA","06111","Ventura County",34.666666,-119.333333,2014-07-09,2014-07-01
300230940,NA,2015,1422230400000,0.5,"CA","VENTURA","06111","Ventura County",34.166666,-119.166666,2015-01-26,2015-01-01
300230941,NA,2015,1.429056e+12,0.8,"CA","VENTURA","06111","Ventura County",34.411899,-118.934109,2015-04-15,2015-04-01
400031160,"BURSON",2016,1459468800000,0.6,"CA","Ventura","06111","Ventura County",34.463449,-118.860023,2016-04-01,2016-04-01
400007301,"CANYON",2017,1500422400000,30,"CA","111","06111","Ventura County",34.45138889,-119.05083333,2017-07-19,2017-07-01
400007304,"GOLD",2017,1499212800000,0.5,"CA","111","06111","Ventura County",34.65472222,-118.93555556,2017-07-05,2017-07-01
400007308,"NETTLE",2017,1512518400000,0.1,"CA","111","06111","Ventura County",34.79333333,-119.28194444,2017-12-06,2017-12-01
400007311,"WILLOW",2017,1497052800000,0.25,"CA","111","06111","Ventura County",34.41333333,-119.37,2017-06-10,2017-06-01
400007312,"CASITAS FIRE",2017,1.500336e+12,0.48,"CA","111","06111","Ventura County",34.41,-119.365,2017-07-18,2017-07-01
400007315,"FORK",2017,1504137600000,1,"CA","111","06111","Ventura County",34.54055556,-119.12305556,2017-08-31,2017-08-01
400007318,"DOME",2017,1495497600000,0.1,"CA","111","06111","Ventura County",34.75388889,-119.23694444,2017-05-23,2017-05-01
400009644,"APACHE",2017,1494633600000,24.4,"CA","111","06111","Ventura County",34.75472222,-119.41277778,2017-05-13,2017-05-01
400009652,"THOMAS",2017,1512345600000,281893,"CA","111","06111","Ventura County",34.42527778,-119.06027778,2017-12-04,2017-12-01
300344006,NA,2010,1279929600000,0.01,"CA","VENTURA","06111","Ventura County",34.17111413,-118.91301141,2010-07-24,2010-07-01
400001529,"PASS",2016,1477267200000,0.01,"CA","111","06111","Ventura County",34.3875,-119.37555556,2016-10-24,2016-10-01
400001532,"CHUCHUPATE",2016,1462060800000,0.1,"CA","111","06111","Ventura County",34.80472222,-119.00972222,2016-05-01,2016-05-01
400001533,"PINE",2016,1467244800000,2304,"CA","111","06111","Ventura County",34.63083333,-119.23027778,2016-06-30,2016-06-01
400001535,"MUNSON",2016,1466380800000,0.25,"CA","111","06111","Ventura County",34.57111111,-119.25944444,2016-06-20,2016-06-01
300333285,NA,2009,1233705600000,50,"CA","VENTURA","06111","Ventura County",34.31074288,-119.32641168,2009-02-04,2009-02-01
400003164,"RED",2016,1475798400000,0.11,"CA","111","06111","Ventura County",34.38638889,-119.36416667,2016-10-07,2016-10-01
300319247,NA,2009,1261526400000,3.5,"CA","VENTURA","06111","Ventura County",34.39559388,-118.87149869,2009-12-23,2009-12-01
300345438,NA,2010,1268697600000,0.01,"CA","VENTURA","06111","Ventura County",34.43261896,-118.91982825,2010-03-16,2010-03-01
300308134,NA,2015,1446422400000,0.1,"CA","VENTURA","06111","Ventura County",34.176483,-119.169282,2015-11-02,2015-11-01
400003046,"LANE",2016,1475884800000,0.67,"CA","111","06111","Ventura County",34.72555556,-118.85194444,2016-10-08,2016-10-01
400003161,"MARICOPA",2016,1.473984e+12,0.2,"CA","111","06111","Ventura County",34.49722222,-119.30083333,2016-09-16,2016-09-01
400003162,"GRIDLEY",2016,1473724800000,0.2,"CA","111","06111","Ventura County",34.47277778,-119.23083333,2016-09-13,2016-09-01
400003163,"CASITAS",2016,1475625600000,0.1,"CA","111","06111","Ventura County",34.38833333,-119.36055556,2016-10-05,2016-10-01
300343977,NA,2009,1243814400000,0.25,"CA","VENTURA","06111","Ventura County",34.43662095,-118.92882147,2009-06-01,2009-06-01
400048378,NA,2016,1461110400000,0.01,"CA","VENTURA","06111","Ventura County",34.433333,-119.366666,2016-04-20,2016-04-01
400039420,NA,2016,1463270400000,0.01,"CA","VENTURA","06111","Ventura County",34.666666,-119.333333,2016-05-15,2016-05-01
400048376,NA,2016,1459555200000,0.1,"CA","VENTURA","06111","Ventura County",34.666666,-119.166666,2016-04-02,2016-04-01
400048377,NA,2016,1460764800000,0.1,"CA","VENTURA","06111","Ventura County",34.433333,-119.366666,2016-04-16,2016-04-01
400045851,NA,2016,1466380800000,0.25,"CA","VENTURA","06111","Ventura County",34.666666,-119.166666,2016-06-20,2016-06-01
400045852,NA,2016,1467676800000,1.08,"CA","VENTURA","06111","Ventura County",34.5,-119.166666,2016-07-05,2016-07-01
300293894,"SOLIMAR",2015,1.451088e+12,1288,"CA","Ventura County","06111","Ventura County",34.3141667,-119.3527778,2015-12-26,2015-12-01
400139471,NA,2017,1500076800000,0.1,"CA","VENTURA","06111","Ventura County",34.483333,-119.483333,2017-07-15,2017-07-01
400139474,NA,2017,1499299200000,0.1,"CA","VENTURA","06111","Ventura County",34.45,-119.266666,2017-07-06,2017-07-01
400139475,NA,2017,1.50336e+12,0.1,"CA","VENTURA","06111","Ventura County",34.433333,-119.416666,2017-08-22,2017-08-01
400140495,NA,2017,1491955200000,0.25,"CA","VENTURA","06111","Ventura County",34.45,-119.383333,2017-04-12,2017-04-01
400134494,NA,2017,1514246400000,0.1,"CA","VENTURA","06111","Ventura County",34.516666,-119.483333,2017-12-26,2017-12-01
400118197,NA,2017,1485561600000,0.5,"CA","VENTURA","06111","Ventura County",34.416666,-119.35,2017-01-28,2017-01-01
400118198,NA,2017,1495324800000,0.01,"CA","VENTURA","06111","Ventura County",34.45,-119.416666,2017-05-21,2017-05-01
400118199,NA,2017,1512345600000,0.01,"CA","VENTURA","06111","Ventura County",34.171015,-119.225274,2017-12-04,2017-12-01
400116701,NA,2017,1497571200000,2,"CA","VENTURA","06111","Ventura County",34.666666,-119.5,2017-06-16,2017-06-01
400116702,NA,2017,1512777600000,0.01,"CA","VENTURA","06111","Ventura County",34.466666,-119.466666,2017-12-09,2017-12-01
400116703,NA,2017,1.499904e+12,0.11,"CA","VENTURA","06111","Ventura County",34.666666,-119.166666,2017-07-13,2017-07-01
400116704,NA,2017,1508716800000,0.1,"CA","VENTURA","06111","Ventura County",34.466666,-119.3,2017-10-23,2017-10-01
400154804,NA,2017,1514678400000,0.01,"CA","VENTURA","06111","Ventura County",34.483333,-119.483333,2017-12-31,2017-12-01
400154805,NA,2017,1493510400000,0.1,"CA","VENTURA","06111","Ventura County",34.351653,-119.079494,2017-04-30,2017-04-01
400154806,NA,2017,1496275200000,0.1,"CA","VENTURA","06111","Ventura County",34.466666,-119.383333,2017-06-01,2017-06-01
400154807,NA,2017,1504396800000,0.01,"CA","VENTURA","06111","Ventura County",34.4,-119.45,2017-09-03,2017-09-01
400154808,NA,2017,1.507248e+12,0.1,"CA","VENTURA","06111","Ventura County",34.45,-119.25,2017-10-06,2017-10-01
400154809,NA,2017,1507593600000,0.1,"CA","VENTURA","06111","Ventura County",34.416666,-119.4,2017-10-10,2017-10-01
400154810,NA,2017,1.511568e+12,0.01,"CA","VENTURA","06111","Ventura County",34.466666,-119.366666,2017-11-25,2017-11-01
400154811,NA,2017,1511913600000,0.5,"CA","VENTURA","06111","Ventura County",34.170278,-119.160046,2017-11-29,2017-11-01
400154812,NA,2017,1512604800000,1,"CA","VENTURA","06111","Ventura County",34.197824,-119.245014,2017-12-07,2017-12-01
400154813,NA,2017,1.512864e+12,0.1,"CA","VENTURA","06111","Ventura County",34.197824,-119.245014,2017-12-10,2017-12-01
400154814,NA,2017,1.513296e+12,0.1,"CA","VENTURA","06111","Ventura County",34.483333,-119.266666,2017-12-15,2017-12-01
400154815,NA,2017,1514073600000,0.1,"CA","VENTURA","06111","Ventura County",34.45,-119.4,2017-12-24,2017-12-01
400159043,NA,2017,1496707200000,0.01,"CA","VENTURA","06111","Ventura County",34.45,-119.45,2017-06-06,2017-06-01
400159053,NA,2017,1501372800000,0.01,"CA","VENTURA","06111","Ventura County",34.466666,-119.466666,2017-07-30,2017-07-01
400159058,NA,2017,1508025600000,0.01,"CA","VENTURA","06111","Ventura County",34.483333,-119.466666,2017-10-15,2017-10-01
400159060,NA,2017,1485907200000,0.01,"CA","VENTURA","06111","Ventura County",34.45,-119.35,2017-02-01,2017-02-01
400159061,NA,2017,1493337600000,1.5,"CA","VENTURA","06111","Ventura County",34.34391,-119.070051,2017-04-28,2017-04-01
400159062,NA,2017,1.493424e+12,0.5,"CA","VENTURA","06111","Ventura County",34.254131,-118.901671,2017-04-29,2017-04-01
400159063,NA,2017,1493683200000,0.01,"CA","VENTURA","06111","Ventura County",34.666666,-119.166666,2017-05-02,2017-05-01
400159064,NA,2017,1497139200000,0.01,"CA","VENTURA","06111","Ventura County",34.416666,-119.333333,2017-06-11,2017-06-01
400159065,NA,2017,1497916800000,0.01,"CA","VENTURA","06111","Ventura County",34.5,-119.266666,2017-06-20,2017-06-01
400159066,NA,2017,1499558400000,0.1,"CA","VENTURA","06111","Ventura County",34.45,-119.316666,2017-07-09,2017-07-01
400159067,NA,2017,1.5012e+12,0.01,"CA","VENTURA","06111","Ventura County",34.416666,-119.316666,2017-07-28,2017-07-01
400159068,NA,2017,1501718400000,0.1,"CA","VENTURA","06111","Ventura County",34.433333,-119.333333,2017-08-03,2017-08-01
400159069,NA,2017,1502236800000,0.1,"CA","VENTURA","06111","Ventura County",34.433333,-119.283333,2017-08-09,2017-08-01
400159070,NA,2017,1502323200000,0.01,"CA","VENTURA","06111","Ventura County",34.45,-119.35,2017-08-10,2017-08-01
400159071,NA,2017,1504828800000,0.01,"CA","VENTURA","06111","Ventura County",34.4,-119.433333,2017-09-08,2017-09-01
400159072,NA,2017,1505779200000,0.01,"CA","VENTURA","06111","Ventura County",34.45,-119.366666,2017-09-19,2017-09-01
400159073,NA,2017,1507852800000,0.1,"CA","VENTURA","06111","Ventura County",34.5,-119.266666,2017-10-13,2017-10-01
400159074,NA,2017,1508803200000,0.01,"CA","VENTURA","06111","Ventura County",34.183333,-119.183333,2017-10-24,2017-10-01
400159075,NA,2017,1508803200000,0.1,"CA","VENTURA","06111","Ventura County",34.433333,-119.316666,2017-10-24,2017-10-01
400159076,NA,2017,1.50984e+12,0.25,"CA","VENTURA","06111","Ventura County",34.147705,-119.110862,2017-11-05,2017-11-01
400159077,NA,2017,1511395200000,6,"CA","VENTURA","06111","Ventura County",34.55,-119.433333,2017-11-23,2017-11-01
400159079,NA,2017,1.512432e+12,5,"CA","VENTURA","06111","Ventura County",34.466666,-119.4,2017-12-05,2017-12-01
400159080,NA,2017,1.513728e+12,0.01,"CA","VENTURA","06111","Ventura County",34.466666,-119.433333,2017-12-20,2017-12-01
400083476,NA,2016,1.454112e+12,0.01,"CA","VENTURA","06111","Ventura County",34.433333,-119.333333,2016-01-30,2016-01-01
400100579,NA,2016,1461196800000,3,"CA","VENTURA","06111","Ventura County",34.5,-119.333333,2016-04-21,2016-04-01
400100580,NA,2016,1465862400000,0.01,"CA","VENTURA","06111","Ventura County",34.290112,-119.035004,2016-06-14,2016-06-01
400100581,NA,2016,1466467200000,1,"CA","VENTURA","06111","Ventura County",34.45,-119.383333,2016-06-21,2016-06-01
400100582,NA,2016,1468713600000,0.01,"CA","VENTURA","06111","Ventura County",34.4,-119.433333,2016-07-17,2016-07-01
400105328,NA,2016,1.474848e+12,0.01,"CA","VENTURA","06111","Ventura County",34.212141,-119.194571,2016-09-26,2016-09-01
400105329,NA,2016,1.474848e+12,0.01,"CA","VENTURA","06111","Ventura County",34.45,-119.35,2016-09-26,2016-09-01
400105330,NA,2016,1479427200000,0.1,"CA","VENTURA","06111","Ventura County",34.45,-119.366666,2016-11-18,2016-11-01
400105331,NA,2016,1480809600000,0.1,"CA","VENTURA","06111","Ventura County",34.383333,-119.366666,2016-12-04,2016-12-01
400105332,NA,2016,1480982400000,0.01,"CA","VENTURA","06111","Ventura County",34.5,-119.283333,2016-12-06,2016-12-01
400111745,NA,2017,1500508800000,0.1,"CA","VENTURA","06111","Ventura County",34.45,-119.416666,2017-07-20,2017-07-01
400105305,NA,2016,1.461456e+12,0.01,"CA","VENTURA","06111","Ventura County",34.533333,-119.483333,2016-04-24,2016-04-01
400105311,NA,2016,1474675200000,0.1,"CA","VENTURA","06111","Ventura County",34.466666,-119.533333,2016-09-24,2016-09-01
400105313,NA,2016,1478822400000,0.01,"CA","VENTURA","06111","Ventura County",34.433333,-119.466666,2016-11-11,2016-11-01
400105314,NA,2016,1480636800000,0.25,"CA","VENTURA","06111","Ventura County",34.466666,-119.533333,2016-12-02,2016-12-01
400105315,NA,2016,1451606400000,0.1,"CA","VENTURA","06111","Ventura County",34.483333,-119.266666,2016-01-01,2016-01-01
400105316,NA,2016,1455062400000,1,"CA","VENTURA","06111","Ventura County",34.45,-119.333333,2016-02-10,2016-02-01
400105317,NA,2016,1.455408e+12,0.1,"CA","VENTURA","06111","Ventura County",34.45,-119.316666,2016-02-14,2016-02-01
400105318,NA,2016,1460937600000,0.1,"CA","VENTURA","06111","Ventura County",34.416666,-119.35,2016-04-18,2016-04-01
400105319,NA,2016,1461110400000,0.23,"CA","VENTURA","06111","Ventura County",34.416666,-119.333333,2016-04-20,2016-04-01
400105320,NA,2016,1461110400000,0.1,"CA","VENTURA","06111","Ventura County",34.416666,-119.35,2016-04-20,2016-04-01
400105321,NA,2016,1463011200000,12,"CA","VENTURA","06111","Ventura County",34.5,-119.166666,2016-05-12,2016-05-01
400105322,NA,2016,1463011200000,15,"CA","VENTURA","06111","Ventura County",34.516666,-119.316666,2016-05-12,2016-05-01
400105323,NA,2016,1465689600000,0.01,"CA","VENTURA","06111","Ventura County",34.466666,-119.3,2016-06-12,2016-06-01
400105324,NA,2016,1466294400000,0.01,"CA","VENTURA","06111","Ventura County",34.4,-119.366666,2016-06-19,2016-06-01
400105325,NA,2016,1468454400000,0.01,"CA","VENTURA","06111","Ventura County",34.201997,-119.159839,2016-07-14,2016-07-01
400105326,NA,2016,1468972800000,0.01,"CA","VENTURA","06111","Ventura County",34.225622,-119.154956,2016-07-20,2016-07-01
400105327,NA,2016,1473033600000,0.01,"CA","VENTURA","06111","Ventura County",34.466666,-119.433333,2016-09-05,2016-09-01
400405382,NA,2005,1123545600000,0.1,"CA","VENTURA","06111","Ventura County",34.249414,-118.730578,2005-08-09,2005-08-01
400406079,NA,2005,1116806400000,0.25,"CA","VENTURA","06111","Ventura County",34.399385,-119.31208,2005-05-23,2005-05-01
400406374,NA,2005,1126483200000,0.1,"CA","VENTURA","06111","Ventura County",34.276385,-119.305263,2005-09-12,2005-09-01
400406534,NA,2005,1120348800000,0.1,"CA","VENTURA","06111","Ventura County",34.326495,-118.90877,2005-07-03,2005-07-01
400388322,NA,2018,1541721600000,0.25,"CA","VENTURA","06111","Ventura County",34.164878,-119.145166,2018-11-09,2018-11-01
400388323,NA,2018,1542758400000,1,"CA","VENTURA","06111","Ventura County",34.383333,-119.166666,2018-11-21,2018-11-01
400405545,NA,2005,1117670400000,0.1,"CA","VENTURA","06111","Ventura County",34.393557,-118.941505,2005-06-02,2005-06-01
400405719,NA,2005,1116806400000,10,"CA","VENTURA","06111","Ventura County",34.202658,-118.841815,2005-05-23,2005-05-01
400406232,NA,2005,1135036800000,0.1,"CA","VENTURA","06111","Ventura County",34.270017,-118.766416,2005-12-20,2005-12-01
400405977,NA,2005,1125964800000,0.2,"CA","VENTURA","06111","Ventura County",34.400329,-118.905236,2005-09-06,2005-09-01
400406241,NA,2005,1120694400000,0.1,"CA","VENTURA","06111","Ventura County",34.402928,-119.292834,2005-07-07,2005-07-01
400405367,NA,2005,1115942400000,0.1,"CA","VENTURA","06111","Ventura County",34.238595,-118.848003,2005-05-13,2005-05-01
400405878,NA,2005,1108252800000,0.1,"CA","VENTURA","06111","Ventura County",34.276385,-119.305263,2005-02-13,2005-02-01
400406416,NA,2005,1122249600000,0.1,"CA","VENTURA","06111","Ventura County",34.294875,-119.296252,2005-07-25,2005-07-01
400406420,NA,2005,1127865600000,30,"CA","VENTURA","06111","Ventura County",34.300109,-118.84561,2005-09-28,2005-09-01
400405777,NA,2005,1113177600000,0.1,"CA","VENTURA","06111","Ventura County",34.271025,-119.243507,2005-04-11,2005-04-01
400406003,NA,2005,1132963200000,0.1,"CA","VENTURA","06111","Ventura County",34.257445,-119.210897,2005-11-26,2005-11-01
400406432,NA,2005,1.121472e+12,0.15,"CA","VENTURA","06111","Ventura County",34.213117,-119.046312,2005-07-16,2005-07-01
400407592,NA,2005,1.1124e+12,0.1,"CA","VENTURA","06111","Ventura County",34.179501,-118.780005,2005-04-02,2005-04-01
400405801,NA,2005,1119225600000,0.1,"CA","VENTURA","06111","Ventura County",34.287671,-119.291189,2005-06-20,2005-06-01
400405707,NA,2005,1121299200000,0.1,"CA","VENTURA","06111","Ventura County",34.269217,-119.237328,2005-07-14,2005-07-01
400405930,NA,2005,1108166400000,0.1,"CA","VENTURA","06111","Ventura County",34.281664,-119.305686,2005-02-12,2005-02-01
400407464,NA,2005,1121817600000,0.2,"CA","VENTURA","06111","Ventura County",34.209241,-118.692717,2005-07-20,2005-07-01
400406542,NA,2005,1.134e+12,0.1,"CA","VENTURA","06111","Ventura County",34.276385,-119.305263,2005-12-08,2005-12-01
400407552,NA,2005,1125878400000,0.1,"CA","VENTURA","06111","Ventura County",34.399007,-119.303338,2005-09-05,2005-09-01
400406632,NA,2005,1.121904e+12,10,"CA","VENTURA","06111","Ventura County",34.271708,-118.71198,2005-07-21,2005-07-01
400406799,NA,2005,1129161600000,10,"CA","VENTURA","06111","Ventura County",34.274127,-118.803378,2005-10-13,2005-10-01
400406812,NA,2005,1119052800000,0.1,"CA","VENTURA","06111","Ventura County",34.273471,-119.207974,2005-06-18,2005-06-01
400406813,NA,2005,1121299200000,1,"CA","VENTURA","06111","Ventura County",34.214367,-118.994169,2005-07-14,2005-07-01
400406980,NA,2005,1115164800000,0.1,"CA","VENTURA","06111","Ventura County",34.24739,-119.26009,2005-05-04,2005-05-01
400404897,NA,2005,1126742400000,0.1,"CA","VENTURA","06111","Ventura County",34.266852,-119.195627,2005-09-15,2005-09-01
400406910,NA,2005,1132531200000,0.1,"CA","VENTURA","06111","Ventura County",34.279074,-119.223029,2005-11-21,2005-11-01
400406987,NA,2005,1.129248e+12,0.1,"CA","VENTURA","06111","Ventura County",34.269361,-118.872374,2005-10-14,2005-10-01
400406990,NA,2005,1124236800000,1,"CA","VENTURA","06111","Ventura County",34.297627,-118.847823,2005-08-17,2005-08-01
400407094,NA,2005,1120435200000,0.2,"CA","VENTURA","06111","Ventura County",34.394448,-118.917394,2005-07-04,2005-07-01
400406962,NA,2005,1119484800000,3,"CA","VENTURA","06111","Ventura County",34.29474,-119.340624,2005-06-23,2005-06-01
400407049,NA,2005,1125446400000,0.2,"CA","VENTURA","06111","Ventura County",34.281969,-119.215556,2005-08-31,2005-08-01
400405197,NA,2005,1120435200000,0.1,"CA","VENTURA","06111","Ventura County",34.282122,-119.163386,2005-07-04,2005-07-01
400388312,NA,2018,1514937600000,0.25,"CA","VENTURA","06111","Ventura County",34.21944,-119.214288,2018-01-03,2018-01-01
400405190,NA,2005,1.113696e+12,0.1,"CA","VENTURA","06111","Ventura County",34.277581,-119.287016,2005-04-17,2005-04-01
400388313,NA,2018,1.523664e+12,0.25,"CA","VENTURA","06111","Ventura County",34.218522,-119.253741,2018-04-14,2018-04-01
400388314,NA,2018,1526860800000,0.1,"CA","VENTURA","06111","Ventura County",34.157773,-119.190797,2018-05-21,2018-05-01
400388315,NA,2018,1530230400000,5,"CA","VENTURA","06111","Ventura County",34.24427,-119.256933,2018-06-29,2018-06-01
400388316,NA,2018,1530316800000,2,"CA","VENTURA","06111","Ventura County",34.240304,-119.261142,2018-06-30,2018-06-01
400388317,NA,2018,1531612800000,0.1,"CA","VENTURA","06111","Ventura County",34.197703,-119.177406,2018-07-15,2018-07-01
400388318,NA,2018,1533081600000,10,"CA","VENTURA","06111","Ventura County",34.324696,-118.708257,2018-08-01,2018-08-01
400388319,NA,2018,1537228800000,61,"CA","VENTURA","06111","Ventura County",34.281079,-118.671691,2018-09-18,2018-09-01
400388320,NA,2018,1541635200000,4381.2,"CA","VENTURA","06111","Ventura County",34.22622,-118.93003,2018-11-08,2018-11-01
400388321,NA,2018,1541721600000,0.25,"CA","VENTURA","06111","Ventura County",34.164878,-119.145166,2018-11-09,2018-11-01
400380999,NA,2018,1515801600000,1,"CA","VENTURA","06111","Ventura County",34.151874,-119.178836,2018-01-13,2018-01-01
400381000,NA,2018,1.51632e+12,0.1,"CA","VENTURA","06111","Ventura County",34.168781,-119.151578,2018-01-19,2018-01-01
400381001,NA,2018,1525219200000,0.25,"CA","VENTURA","06111","Ventura County",34.147593,-119.186175,2018-05-02,2018-05-01
400381002,NA,2018,1530662400000,0.1,"CA","VENTURA","06111","Ventura County",34.205536,-119.166363,2018-07-04,2018-07-01
400381003,NA,2018,1536451200000,0.1,"CA","VENTURA","06111","Ventura County",34.140191,-119.184025,2018-09-09,2018-09-01
400381004,NA,2018,1539561600000,1,"CA","VENTURA","06111","Ventura County",34.15467,-119.177865,2018-10-15,2018-10-01
400359135,NA,2018,1.53144e+12,0.1,"CA","VENTURA","06111","Ventura County",34.163745,-119.159357,2018-07-13,2018-07-01
400359136,NA,2018,1538611200000,0.01,"CA","VENTURA","06111","Ventura County",34.163745,-119.159357,2018-10-04,2018-10-01
400359137,NA,2018,1538611200000,0.01,"CA","VENTURA","06111","Ventura County",34.163745,-119.159357,2018-10-04,2018-10-01
400407938,NA,2005,1118966400000,0.1,"CA","VENTURA","06111","Ventura County",34.274595,-119.196031,2005-06-17,2005-06-01
400409001,NA,2005,1118534400000,0.1,"CA","VENTURA","06111","Ventura County",34.281888,-119.307556,2005-06-12,2005-06-01
400409176,NA,2006,1.140048e+12,0.1,"CA","VENTURA","06111","Ventura County",34.281888,-119.307556,2006-02-16,2006-02-01
400410355,NA,2006,1156291200000,1,"CA","VENTURA","06111","Ventura County",34.275602,-119.154932,2006-08-23,2006-08-01
400412030,NA,2006,1.159056e+12,0.5,"CA","VENTURA","06111","Ventura County",34.244279,-119.256861,2006-09-24,2006-09-01
400414191,NA,2007,1189814400000,0.1,"CA","VENTURA","06111","Ventura County",34.279324,-119.161358,2007-09-15,2007-09-01
400414691,NA,2007,1183593600000,0.1,"CA","VENTURA","06111","Ventura County",34.357449,-119.077227,2007-07-05,2007-07-01
400416200,NA,2007,1192924800000,10,"CA","VENTURA","06111","Ventura County",34.190253,-118.949483,2007-10-21,2007-10-01
400409520,NA,2006,1157500800000,0.1,"CA","VENTURA","06111","Ventura County",34.276484,-119.224819,2006-09-06,2006-09-01
400410361,NA,2006,1.141776e+12,10,"CA","VENTURA","06111","Ventura County",34.441266,-119.276727,2006-03-08,2006-03-01
400411698,NA,2006,1154131200000,0.1,"CA","VENTURA","06111","Ventura County",34.288561,-119.298599,2006-07-29,2006-07-01
400412034,NA,2006,1152921600000,0.1,"CA","VENTURA","06111","Ventura County",34.213153,-119.038236,2006-07-15,2006-07-01
400414537,NA,2007,1170460800000,0.1,"CA","VENTURA","06111","Ventura County",34.259331,-119.193507,2007-02-03,2007-02-01
400416207,NA,2007,1197676800000,2,"CA","VENTURA","06111","Ventura County",34.282164,-119.310403,2007-12-15,2007-12-01
400408681,NA,2005,1120694400000,0.1,"CA","VENTURA","06111","Ventura County",34.276529,-119.281215,2005-07-07,2005-07-01
400409202,NA,2006,1158710400000,0.1,"CA","VENTURA","06111","Ventura County",34.340956,-119.084111,2006-09-20,2006-09-01
400409874,NA,2006,1.153008e+12,10,"CA","VENTURA","06111","Ventura County",34.456942,-119.257302,2006-07-16,2006-07-01
400410210,NA,2006,1158364800000,0.1,"CA","VENTURA","06111","Ventura County",34.305622,-119.293473,2006-09-16,2006-09-01
400415060,NA,2007,1188950400000,2,"CA","VENTURA","06111","Ventura County",34.282138,-119.309494,2007-09-05,2007-09-01
400408165,NA,2005,1.132272e+12,0.25,"CA","VENTURA","06111","Ventura County",34.400824,-118.832229,2005-11-18,2005-11-01
400410381,NA,2006,1139356800000,1,"CA","VENTURA","06111","Ventura County",34.275602,-119.154932,2006-02-08,2006-02-01
400411726,NA,2006,1154390400000,0.1,"CA","VENTURA","06111","Ventura County",34.35155,-119.054253,2006-08-01,2006-08-01
400409047,NA,2005,1114819200000,0.1,"CA","VENTURA","06111","Ventura County",34.278714,-119.296225,2005-04-30,2005-04-01
400409889,NA,2006,1.152144e+12,1,"CA","VENTURA","06111","Ventura County",34.362756,-119.057077,2006-07-06,2006-07-01
400410061,NA,2006,1161820800000,0.1,"CA","VENTURA","06111","Ventura County",34.267346,-119.166156,2006-10-26,2006-10-01
400411235,NA,2006,1143244800000,0.1,"CA","VENTURA","06111","Ventura County",34.214619,-118.865971,2006-03-25,2006-03-01
400411563,NA,2006,1151625600000,1,"CA","VENTURA","06111","Ventura County",34.186039,-118.858974,2006-06-30,2006-06-01
400414231,NA,2007,1172361600000,0.3,"CA","VENTURA","06111","Ventura County",34.34,-119.1,2007-02-25,2007-02-01
400417236,NA,2008,1207958400000,0.1,"CA","VENTURA","06111","Ventura County",34.263551,-119.239496,2008-04-12,2008-04-01
400413911,NA,2007,1192924800000,2,"CA","VENTURA","06111","Ventura County",34.261564,-118.87755,2007-10-21,2007-10-01
400416079,NA,2007,1193011200000,0.1,"CA","VENTURA","06111","Ventura County",34.262528,-119.195322,2007-10-22,2007-10-01
400409242,NA,2006,1137801600000,0.1,"CA","VENTURA","06111","Ventura County",34.262562,-119.195096,2006-01-21,2006-01-01
400411752,NA,2006,1160092800000,0.1,"CA","VENTURA","06111","Ventura County",34.277464,-119.221959,2006-10-06,2006-10-01
400409249,NA,2006,1161820800000,0.1,"CA","VENTURA","06111","Ventura County",34.264657,-119.172712,2006-10-26,2006-10-01
400412773,NA,2006,1154390400000,0.1,"CA","VENTURA","06111","Ventura County",34.364725,-119.062014,2006-08-01,2006-08-01
400415270,NA,2007,1184284800000,0.1,"CA","VENTURA","06111","Ventura County",34.362364,-119.05446,2007-07-13,2007-07-01
400418011,NA,2008,1199145600000,0.1,"CA","VENTURA","06111","Ventura County",34.353408,-119.058569,2008-01-01,2008-01-01
400408219,NA,2005,1.127952e+12,0.1,"CA","VENTURA","06111","Ventura County",34.345569,-119.074407,2005-09-29,2005-09-01
400410939,NA,2006,1158451200000,0.1,"CA","VENTURA","06111","Ventura County",34.28518,-119.298797,2006-09-17,2006-09-01
400410940,NA,2006,1161907200000,0.1,"CA","VENTURA","06111","Ventura County",34.27946,-119.158341,2006-10-27,2006-10-01
400412449,NA,2006,1158796800000,1,"CA","VENTURA","06111","Ventura County",34.240538,-119.261079,2006-09-21,2006-09-01
400414445,NA,2007,1179014400000,0.1,"CA","VENTURA","06111","Ventura County",34.344774,-119.086012,2007-05-13,2007-05-01
400415449,NA,2007,1179619200000,0.1,"CA","VENTURA","06111","Ventura County",34.282626,-119.314217,2007-05-20,2007-05-01
400408052,NA,2005,1113782400000,0.1,"CA","VENTURA","06111","Ventura County",34.286313,-119.30422,2005-04-18,2005-04-01
400408407,NA,2005,1.121904e+12,0.25,"CA","VENTURA","06111","Ventura County",34.395967,-119.139734,2005-07-21,2005-07-01
400411783,NA,2006,1158710400000,0.1,"CA","VENTURA","06111","Ventura County",34.280845,-119.296099,2006-09-20,2006-09-01
400408061,NA,2005,1124409600000,5,"CA","VENTURA","06111","Ventura County",34.294695,-119.291683,2005-08-19,2005-08-01
400408410,NA,2005,1122422400000,0.1,"CA","VENTURA","06111","Ventura County",34.21068,-118.853516,2005-07-27,2005-07-01
400412467,NA,2006,1138838400000,1,"CA","VENTURA","06111","Ventura County",34.280845,-119.296099,2006-02-02,2006-02-01
400414628,NA,2007,1193011200000,1,"CA","VENTURA","06111","Ventura County",34.295397,-119.176849,2007-10-22,2007-10-01
400414635,NA,2007,1193097600000,1,"CA","VENTURA","06111","Ventura County",34.347804,-119.07014,2007-10-23,2007-10-01
400415624,NA,2007,1178409600000,0.1,"CA","VENTURA","06111","Ventura County",34.285525,-119.293934,2007-05-06,2007-05-01
400407880,NA,2005,1113091200000,0.1,"CA","VENTURA","06111","Ventura County",34.296404,-119.164357,2005-04-10,2005-04-01
400408243,NA,2005,1.132272e+12,4000,"CA","VENTURA","06111","Ventura County",34.285846,-119.279839,2005-11-18,2005-11-01
400410292,NA,2006,1154908800000,0.1,"CA","VENTURA","06111","Ventura County",34.291152,-119.295487,2006-08-07,2006-08-01
400412812,NA,2006,1.137024e+12,0.25,"CA","VENTURA","06111","Ventura County",34.270224,-118.773953,2006-01-12,2006-01-01
400414984,NA,2007,1193011200000,0.1,"CA","VENTURA","06111","Ventura County",34.289126,-119.190059,2007-10-22,2007-10-01
400415478,NA,2007,1.18368e+12,0.1,"CA","VENTURA","06111","Ventura County",34.275549,-119.15499,2007-07-06,2007-07-01
400408254,NA,2005,1123459200000,0.1,"CA","VENTURA","06111","Ventura County",34.260835,-118.714291,2005-08-08,2005-08-01
400415979,NA,2007,1195603200000,2,"CA","VENTURA","06111","Ventura County",34.288207,-118.86654,2007-11-21,2007-11-01
400418300,NA,2008,1218758400000,0.01,"CA","VENTURA","06111","Ventura County",34.239719,-119.073804,2008-08-15,2008-08-01
400408447,NA,2005,1135209600000,0.1,"CA","VENTURA","06111","Ventura County",34.261573,-118.768745,2005-12-22,2005-12-01
400410490,NA,2006,1.165536e+12,0.2,"CA","VENTURA","06111","Ventura County",34.298985,-119.295505,2006-12-08,2006-12-01
400411491,NA,2006,1139875200000,0.1,"CA","VENTURA","06111","Ventura County",34.301647,-119.292439,2006-02-14,2006-02-01
400418102,NA,2008,1.223856e+12,20,"CA","VENTURA","06111","Ventura County",34.35155,-119.054253,2008-10-13,2008-10-01
400412842,NA,2006,1161907200000,0.1,"CA","VENTURA","06111","Ventura County",34.259954,-119.194431,2006-10-27,2006-10-01
400413838,NA,2007,1197417600000,0.1,"CA","VENTURA","06111","Ventura County",34.248751,-119.227076,2007-12-12,2007-12-01
400415506,NA,2007,1.188864e+12,0.1,"CA","VENTURA","06111","Ventura County",34.296801,-119.205801,2007-09-04,2007-09-01
400418425,NA,2008,1.212624e+12,0.1,"CA","VENTURA","06111","Ventura County",34.267823,-119.238515,2008-06-05,2008-06-01
400410668,NA,2006,1.15776e+12,0.1,"CA","VENTURA","06111","Ventura County",34.27902,-119.285505,2006-09-09,2006-09-01
400413844,NA,2007,1.17504e+12,0.1,"CA","VENTURA","06111","Ventura County",34.364193,-119.061892,2007-03-28,2007-03-01
400414848,NA,2007,1189382400000,100,"CA","VENTURA","06111","Ventura County",34.278303,-118.796729,2007-09-10,2007-09-01
400301271,"BURSON",2018,1.531008e+12,0.25,"CA","111","06111","Ventura County",34.47111111,-118.87611111,2018-07-08,2018-07-01
400301272,"CANYON",2018,1.529712e+12,62,"CA","111","06111","Ventura County",34.54194444,-118.76472222,2018-06-23,2018-06-01
400301279,"POTRERO",2018,1.526688e+12,0.1,"CA","111","06111","Ventura County",34.605,-119.27027778,2018-05-19,2018-05-01
400301280,"ADAMS",2018,1531958400000,13.3,"CA","111","06111","Ventura County",34.69861111,-118.99222222,2018-07-19,2018-07-01
400302878,"MCNELL",2018,1528934400000,0.25,"CA","111","06111","Ventura County",34.46944444,-119.18916667,2018-06-14,2018-06-01
400541299,NA,2019,1556668800000,0.5,"CA","VENTURA","06111","Ventura County",34.6,-119.066666,2019-05-01,2019-05-01
400541904,NA,2019,1564876800000,1,"CA","VENTURA","06111","Ventura County",34.186623,-119.178818,2019-08-04,2019-08-01
400541909,NA,2019,1574035200000,0.1,"CA","VENTURA","06111","Ventura County",34.177297,-119.16933,2019-11-18,2019-11-01
400547987,NA,2019,1.560816e+12,0.01,"CA","VENTURA","06111","Ventura County",34.161721,-119.136235,2019-06-18,2019-06-01
400551545,NA,2019,1573516800000,0.2,"CA","VENTURA","06111","Ventura County",34.131378,-119.167379,2019-11-12,2019-11-01
400551727,NA,2019,1572220800000,1,"CA","VENTURA","06111","Ventura County",34.292608,-119.159285,2019-10-28,2019-10-01
400551651,NA,2019,1564876800000,0.25,"CA","VENTURA","06111","Ventura County",34.149562,-119.170167,2019-08-04,2019-08-01
400551844,NA,2019,1558742400000,1,"CA","VENTURA","06111","Ventura County",34.354617,-118.687015,2019-05-25,2019-05-01
400551483,NA,2019,1571788800000,0.01,"CA","VENTURA","06111","Ventura County",34.666666,-119.333333,2019-10-23,2019-10-01
400548254,NA,2019,1571961600000,0.01,"CA","VENTURA","06111","Ventura County",34.333333,-119.166666,2019-10-25,2019-10-01
400531466,NA,2019,1571788800000,0.01,"CA","VENTURA","06111","Ventura County",34.281088,-118.766227,2019-10-23,2019-10-01
400538546,NA,2019,1563235200000,0.07,"CA","VENTURA","06111","Ventura County",34.4,-119.316666,2019-07-16,2019-07-01
400531122,NA,2019,1560902400000,0.1,"CA","VENTURA","06111","Ventura County",34.156964,-119.184133,2019-06-19,2019-06-01
400531731,NA,2019,1569196800000,0.25,"CA","VENTURA","06111","Ventura County",34.4,-119.316666,2019-09-23,2019-09-01
400538630,NA,2019,1562371200000,0.01,"CA","VENTURA","06111","Ventura County",34.416666,-119.316666,2019-07-06,2019-07-01
400525171,NA,2019,1566691200000,0.11,"CA","VENTURA","06111","Ventura County",34.301107,-118.831797,2019-08-25,2019-08-01
400514861,NA,2019,1566086400000,1,"CA","VENTURA","06111","Ventura County",34.383333,-119.333333,2019-08-18,2019-08-01
400514862,NA,2019,1571356800000,1,"CA","VENTURA","06111","Ventura County",34.210698,-119.19899,2019-10-18,2019-10-01
400515262,NA,2019,1548460800000,0.1,"CA","VENTURA","06111","Ventura County",34.483333,-119.266666,2019-01-26,2019-01-01
400525404,NA,2019,1567382400000,3.6,"CA","VENTURA","06111","Ventura County",34.140182,-119.172343,2019-09-02,2019-09-01
400518732,NA,2019,1562371200000,1,"CA","VENTURA","06111","Ventura County",34.205113,-119.185078,2019-07-06,2019-07-01
400518734,NA,2019,1576627200000,1,"CA","VENTURA","06111","Ventura County",34.140191,-119.184025,2019-12-18,2019-12-01
400515119,NA,2019,1569110400000,0.1,"CA","VENTURA","06111","Ventura County",34.147593,-119.185959,2019-09-22,2019-09-01
400518767,NA,2019,1562198400000,1,"CA","VENTURA","06111","Ventura County",34.170283,-119.160058,2019-07-04,2019-07-01
400564904,NA,2019,1576540800000,17,"CA","VENTURA","06111","Ventura County",34.140182,-119.172343,2019-12-17,2019-12-01
400558297,NA,2019,1546300800000,0.01,"CA","VENTURA","06111","Ventura County",34.416666,-119.35,2019-01-01,2019-01-01
400565058,NA,2019,1565827200000,0.1,"CA","VENTURA","06111","Ventura County",34.20773,-119.1696,2019-08-15,2019-08-01
400558515,NA,2019,1559606400000,0.1,"CA","VENTURA","06111","Ventura County",34.186282,-119.167046,2019-06-04,2019-06-01
400565107,NA,2019,1568332800000,0.01,"CA","VENTURA","06111","Ventura County",34.4,-119.316666,2019-09-13,2019-09-01
400502391,"LADERA",2019,1564099200000,0.1,"CA","111","06111","Ventura County",34.47333333,-119.20194444,2019-07-26,2019-07-01
400504479,"BUCK",2019,1.57464e+12,2,"CA","111","06111","Ventura County",34.63666667,-118.91583333,2019-11-25,2019-11-01
400504480,"OAK FLAT",2019,1558742400000,30.1,"CA","111","06111","Ventura County",34.5675,-119.05305556,2019-05-25,2019-05-01
400504481,"BOYSCOUT",2019,1560297600000,0.2,"CA","111","06111","Ventura County",34.74916667,-119.11861111,2019-06-12,2019-06-01
400501028,"BOAT",2019,1567814400000,0.1,"CA","111","06111","Ventura County",34.40694444,-119.34972222,2019-09-07,2019-09-01
400503804,"PINE",2019,1.565568e+12,0.1,"CA","111","06111","Ventura County",34.63777778,-119.31416667,2019-08-12,2019-08-01
400503805,"SQUAW",2019,1.566864e+12,0.25,"CA","111","06111","Ventura County",34.49055556,-118.87777778,2019-08-27,2019-08-01
400514150,NA,2020,1600646400000,0.1,"CA","VENTURA","06111","Ventura County",34.147152,-119.172262,2020-09-21,2020-09-01
400501731,"GOLD",2019,1570838400000,0.01,"CA","111","06111","Ventura County",34.70222222,-118.93611111,2019-10-12,2019-10-01
400501732,"SNAIL",2019,1.567296e+12,279,"CA","111","06111","Ventura County",34.71,-119.35472222,2019-09-01,2019-09-01
400482065,"RIVER",2015,1434931200000,164,"CA","Ventura","06111","Ventura County",34.3425,-119.0658333,2015-06-22,2015-06-01
400514156,NA,2020,1603843200000,0.01,"CA","VENTURA","06111","Ventura County",34.45,-119.4,2020-10-28,2020-10-01
400503072,"FRAZIER",2019,1573516800000,0.5,"CA","111","06111","Ventura County",34.78527778,-119.00333333,2019-11-12,2019-11-01
400431495,NA,2010,1278979200000,68,"CA","VENTURA","06111","Ventura County",34.263673,-119.019528,2010-07-13,2010-07-01
400426870,NA,2010,1275091200000,1,"CA","VENTURA","06111","Ventura County",34.261498,-118.898148,2010-05-29,2010-05-01
400425174,NA,2009,1258588800000,3,"CA","VENTURA","06111","Ventura County",34.187324,-118.842543,2009-11-19,2009-11-01
400427941,NA,2010,1279756800000,0.25,"CA","VENTURA","06111","Ventura County",34.385661,-118.915715,2010-07-22,2010-07-01
400419356,NA,2008,1214179200000,0.1,"CA","VENTURA","06111","Ventura County",34.293867,-119.204575,2008-06-23,2008-06-01
400418716,NA,2008,1.211328e+12,1,"CA","VENTURA","06111","Ventura County",34.261492,-119.19586,2008-05-21,2008-05-01
400425377,NA,2009,1241740800000,0.5,"CA","VENTURA","06111","Ventura County",34.3963,-118.92261,2009-05-08,2009-05-01
400429859,NA,2010,1285459200000,0.01,"CA","VENTURA","06111","Ventura County",34.279068,-118.683245,2010-09-26,2010-09-01
400423404,NA,2009,1249948800000,1,"CA","VENTURA","06111","Ventura County",34.125361,-119.143637,2009-08-11,2009-08-01
400424890,NA,2009,1233705600000,1,"CA","VENTURA","06111","Ventura County",34.372333,-119.001688,2009-02-04,2009-02-01
400424915,NA,2009,1232150400000,3,"CA","VENTURA","06111","Ventura County",34.410051,-118.785599,2009-01-17,2009-01-01
400427636,NA,2010,1274572800000,5,"CA","VENTURA","06111","Ventura County",34.295081,-118.869514,2010-05-23,2010-05-01
400429033,NA,2010,1278374400000,0.38,"CA","VENTURA","06111","Ventura County",34.200694,-118.873931,2010-07-06,2010-07-01
400418753,NA,2008,1200873600000,1,"CA","VENTURA","06111","Ventura County",34.18712,-119.036375,2008-01-21,2008-01-01
400430430,NA,2010,1272585600000,2,"CA","VENTURA","06111","Ventura County",34.294343,-118.68818,2010-04-30,2010-04-01
400431551,NA,2010,1.268784e+12,0.01,"CA","VENTURA","06111","Ventura County",34.399212,-118.903807,2010-03-17,2010-03-01
400429751,NA,2010,1278979200000,68,"CA","VENTURA","06111","Ventura County",34.238958,-119.028742,2010-07-13,2010-07-01
400419764,NA,2008,1210723200000,1,"CA","VENTURA","06111","Ventura County",34.27473,-119.19515,2008-05-14,2008-05-01
400428371,NA,2010,1.28952e+12,1.5,"CA","VENTURA","06111","Ventura County",34.310103,-119.356321,2010-11-12,2010-11-01
400423800,NA,2009,1.245456e+12,1,"CA","VENTURA","06111","Ventura County",34.254927,-118.746101,2009-06-20,2009-06-01
400427516,NA,2010,1278547200000,3,"CA","VENTURA","06111","Ventura County",34.405278,-118.794681,2010-07-08,2010-07-01
400418958,NA,2008,1212278400000,2,"CA","VENTURA","06111","Ventura County",34.438892,-119.244514,2008-06-01,2008-06-01
400425615,NA,2009,1233705600000,1,"CA","VENTURA","06111","Ventura County",34.393575,-118.949545,2009-02-04,2009-02-01
400424641,NA,2009,1250553600000,0.01,"CA","VENTURA","06111","Ventura County",34.351703,-119.059029,2009-08-18,2009-08-01
400425129,NA,2009,1.251504e+12,0.1,"CA","VENTURA","06111","Ventura County",34.348178,-119.066016,2009-08-29,2009-08-01
400425623,NA,2009,1251590400000,1,"CA","VENTURA","06111","Ventura County",34.191686,-118.913662,2009-08-30,2009-08-01
400425632,NA,2009,1259366400000,1,"CA","VENTURA","06111","Ventura County",34.302282,-118.845729,2009-11-28,2009-11-01
400608374,NA,2020,1608681600000,0.01,"CA","VENTURA","06111","Ventura County",34.433333,-119.383333,2020-12-23,2020-12-01
400600939,NA,2020,1606780800000,0.1,"CA","VENTURA","06111","Ventura County",34.197037,-119.159807,2020-12-01,2020-12-01
400600955,NA,2020,1591747200000,1,"CA","VENTURA","06111","Ventura County",34.188575,-119.175833,2020-06-10,2020-06-01
400608575,NA,2020,1591228800000,0.1,"CA","VENTURA","06111","Ventura County",34.383333,-119.433333,2020-06-04,2020-06-01
400608424,NA,2020,1582588800000,0.01,"CA","VENTURA","06111","Ventura County",34.416666,-119.35,2020-02-25,2020-02-01
400601031,NA,2020,1607385600000,0.1,"CA","VENTURA","06111","Ventura County",34.197064,-119.162693,2020-12-08,2020-12-01
400607187,NA,2020,1.583712e+12,0.01,"CA","VENTURA","06111","Ventura County",34.4,-119.316666,2020-03-09,2020-03-01
400601214,NA,2020,1597363200000,0.5,"CA","VENTURA","06111","Ventura County",34.45,-119.3,2020-08-14,2020-08-01
400599771,NA,2020,1.593216e+12,1,"CA","VENTURA","06111","Ventura County",34.179024,-119.220133,2020-06-27,2020-06-01
400608323,NA,2020,1.605744e+12,0.1,"CA","VENTURA","06111","Ventura County",34.4,-119.433333,2020-11-19,2020-11-01
400608495,NA,2020,1591401600000,0.01,"CA","VENTURA","06111","Ventura County",34.466666,-119.383333,2020-06-06,2020-06-01
400608501,NA,2020,1605571200000,0.01,"CA","VENTURA","06111","Ventura County",34.4,-119.433333,2020-11-17,2020-11-01
400610812,NA,2020,1602460800000,6,"CA","VENTURA","06111","Ventura County",34.313491,-119.101603,2020-10-12,2020-10-01
400599783,NA,2020,1599609600000,3,"CA","VENTURA","06111","Ventura County",34.253335,-118.756964,2020-09-09,2020-09-01
400601067,NA,2020,1593820800000,0.1,"CA","VENTURA","06111","Ventura County",34.483333,-119.25,2020-07-04,2020-07-01
400601252,NA,2020,1587513600000,0.1,"CA","VENTURA","06111","Ventura County",34.433333,-119.383333,2020-04-22,2020-04-01
400601256,NA,2020,1593820800000,2,"CA","VENTURA","06111","Ventura County",34.43114,-118.920047,2020-07-04,2020-07-01
400601271,NA,2020,1586908800000,0.2,"CA","VENTURA","06111","Ventura County",34.187136,-119.16156,2020-04-15,2020-04-01
400589735,NA,2020,1595980800000,0.01,"CA","VENTURA","06111","Ventura County",34.433333,-119.433333,2020-07-29,2020-07-01
400592128,NA,2020,1597363200000,0.1,"CA","VENTURA","06111","Ventura County",34.4,-119.35,2020-08-14,2020-08-01
400593402,NA,2020,1.580688e+12,0.1,"CA","VENTURA","06111","Ventura County",34.353088,-119.028524,2020-02-03,2020-02-01
400589765,NA,2020,1.58976e+12,0.25,"CA","VENTURA","06111","Ventura County",34.4,-119.433333,2020-05-18,2020-05-01
400589773,NA,2020,1594684800000,6.3,"CA","VENTURA","06111","Ventura County",34.32859,-118.901117,2020-07-14,2020-07-01
400596026,NA,2020,1595980800000,0.1,"CA","VENTURA","06111","Ventura County",34.416666,-119.433333,2020-07-29,2020-07-01
400588475,NA,2020,1.595808e+12,6.5,"CA","VENTURA","06111","Ventura County",34.4,-119.35,2020-07-27,2020-07-01
400589792,NA,2020,1605916800000,0.01,"CA","VENTURA","06111","Ventura County",34.4,-119.416666,2020-11-21,2020-11-01
400595865,NA,2020,1578441600000,1,"CA","VENTURA","06111","Ventura County",34.148159,-119.172073,2020-01-08,2020-01-01
400596063,NA,2020,1592870400000,0.1,"CA","VENTURA","06111","Ventura County",34.4,-119.316666,2020-06-23,2020-06-01
400597404,NA,2020,1599868800000,0.01,"CA","VENTURA","06111","Ventura County",34.416666,-119.383333,2020-09-12,2020-09-01
400593506,NA,2020,1598918400000,0.2,"CA","VENTURA","06111","Ventura County",34.4,-119.383333,2020-09-01,2020-09-01
400597459,NA,2020,1596326400000,0.01,"CA","VENTURA","06111","Ventura County",34.4,-119.416666,2020-08-02,2020-08-01
400592245,NA,2020,1.594944e+12,0.1,"CA","VENTURA","06111","Ventura County",34.163259,-119.146865,2020-07-17,2020-07-01
400592249,NA,2020,1605571200000,3.2,"CA","VENTURA","06111","Ventura County",34.4,-119.416666,2020-11-17,2020-11-01
400586022,NA,2020,1606348800000,0.05,"CA","VENTURA","06111","Ventura County",34.45,-119.35,2020-11-26,2020-11-01
400589715,NA,2020,1.604448e+12,0.01,"CA","VENTURA","06111","Ventura County",34.4,-119.433333,2020-11-04,2020-11-01
400593372,NA,2020,1.597536e+12,0.25,"CA","VENTURA","06111","Ventura County",34.264001,-119.242868,2020-08-16,2020-08-01
400582216,NA,2020,1596153600000,0.1,"CA","VENTURA","06111","Ventura County",34.45,-119.35,2020-07-31,2020-07-01
400573126,NA,2020,1606435200000,0.05,"CA","VENTURA","06111","Ventura County",34.45,-119.35,2020-11-27,2020-11-01
400578195,NA,2020,1608595200000,0.1,"CA","VENTURA","06111","Ventura County",34.4,-119.433333,2020-12-22,2020-12-01
400578054,NA,2020,1600300800000,1,"CA","VENTURA","06111","Ventura County",34.148159,-119.172073,2020-09-17,2020-09-01
400582087,NA,2020,1590364800000,0.25,"CA","VENTURA","06111","Ventura County",34.416666,-119.35,2020-05-25,2020-05-01
400582092,NA,2020,1591142400000,0.1,"CA","VENTURA","06111","Ventura County",34.4,-119.433333,2020-06-03,2020-06-01
400574620,NA,2020,1.582848e+12,0.01,"CA","VENTURA","06111","Ventura County",34.433333,-119.366666,2020-02-28,2020-02-01
400574457,NA,2020,1607817600000,1,"CA","VENTURA","06111","Ventura County",34.197037,-119.159807,2020-12-13,2020-12-01
400581941,NA,2020,1.582848e+12,0.5,"CA","VENTURA","06111","Ventura County",34.145147,-119.183962,2020-02-28,2020-02-01
400581946,NA,2020,1.59624e+12,1,"CA","VENTURA","06111","Ventura County",34.145147,-119.183962,2020-08-01,2020-08-01
400581955,NA,2020,1601942400000,1,"CA","VENTURA","06111","Ventura County",34.205428,-119.185078,2020-10-06,2020-10-01
400577479,NA,2020,1.593648e+12,0.1,"CA","VENTURA","06111","Ventura County",34.4,-119.383333,2020-07-02,2020-07-01
400578283,NA,2020,1.60488e+12,0.25,"CA","VENTURA","06111","Ventura County",34.416666,-119.383333,2020-11-09,2020-11-01
400573052,NA,2020,1605225600000,0.1,"CA","VENTURA","06111","Ventura County",34.197037,-119.159807,2020-11-13,2020-11-01
400573054,NA,2020,1598313600000,0.01,"CA","VENTURA","06111","Ventura County",34.433333,-119.4,2020-08-25,2020-08-01
400578135,NA,2020,1608249600000,0.01,"CA","VENTURA","06111","Ventura County",34.466666,-119.383333,2020-12-18,2020-12-01
400574382,NA,2020,1597795200000,2,"CA","VENTURA","06111","Ventura County",34.616666,-119.1,2020-08-19,2020-08-01
400574384,NA,2020,1606521600000,0.05,"CA","VENTURA","06111","Ventura County",34.45,-119.366666,2020-11-28,2020-11-01
400582041,NA,2020,1594252800000,0.1,"CA","VENTURA","06111","Ventura County",34.219925,-119.164555,2020-07-09,2020-07-01
400584468,NA,2020,1.593648e+12,0.25,"CA","VENTURA","06111","Ventura County",34.265512,-118.794115,2020-07-02,2020-07-01
400615855,NA,2020,1.578096e+12,0.1,"CA","VENTURA","06111","Ventura County",34.483333,-119.266666,2020-01-04,2020-01-01
400616198,NA,2020,1601337600000,0.01,"CA","VENTURA","06111","Ventura County",34.416666,-119.383333,2020-09-29,2020-09-01
400619013,NA,2020,1.58544e+12,0.5,"CA","VENTURA","06111","Ventura County",34.4,-119.316666,2020-03-29,2020-03-01
400619014,NA,2020,1.608336e+12,0.1,"CA","VENTURA","06111","Ventura County",34.4,-119.316666,2020-12-19,2020-12-01
400619673,NA,2020,1594166400000,0.1,"CA","VENTURA","06111","Ventura County",34.184366,-119.170688,2020-07-08,2020-07-01
400623703,NA,2020,1580774400000,0.1,"CA","VENTURA","06111","Ventura County",34.45,-119.416666,2020-02-04,2020-02-01
400619698,NA,2020,1604793600000,1,"CA","VENTURA","06111","Ventura County",34.2289,-119.167586,2020-11-08,2020-11-01
400618441,NA,2020,1591833600000,0.5,"CA","VENTURA","06111","Ventura County",34.36754,-118.920398,2020-06-11,2020-06-01
400612250,NA,2020,1.60056e+12,0.5,"CA","VENTURA","06111","Ventura County",34.131378,-119.167379,2020-09-20,2020-09-01
400614646,NA,2020,1.606608e+12,0.05,"CA","VENTURA","06111","Ventura County",34.45,-119.35,2020-11-29,2020-11-01
400623773,NA,2020,1583193600000,0.1,"CA","VENTURA","06111","Ventura County",34.45,-119.416666,2020-03-03,2020-03-01
400619928,NA,2020,1.59192e+12,1,"CA","VENTURA","06111","Ventura County",34.4,-119.316666,2020-06-12,2020-06-01
400619625,NA,2020,1595203200000,1,"CA","VENTURA","06111","Ventura County",34.141981,-119.183989,2020-07-20,2020-07-01
400619987,NA,2020,1.599264e+12,0.02,"CA","VENTURA","06111","Ventura County",34.116989,-118.90421,2020-09-05,2020-09-01
400570833,NA,2020,1.599264e+12,0.5,"CA","VENTURA","06111","Ventura County",34.205428,-119.185078,2020-09-05,2020-09-01
400570566,NA,2020,1.605744e+12,0.25,"CA","VENTURA","06111","Ventura County",34.433333,-119.433333,2020-11-19,2020-11-01
400570571,NA,2020,1607817600000,0.11,"CA","VENTURA","06111","Ventura County",34.433333,-119.4,2020-12-13,2020-12-01
400570618,NA,2020,1589241600000,1,"CA","VENTURA","06111","Ventura County",34.140182,-119.172343,2020-05-12,2020-05-01
400570746,NA,2020,1591747200000,0.5,"CA","VENTURA","06111","Ventura County",34.203558,-118.893589,2020-06-10,2020-06-01
400570748,NA,2020,1607385600000,60,"CA","VENTURA","06111","Ventura County",34.4,-119.333333,2020-12-08,2020-12-01
400570779,NA,2020,1.60272e+12,1,"CA","VENTURA","06111","Ventura County",34.202937,-119.199215,2020-10-15,2020-10-01
400627262,NA,2020,1596326400000,1,"CA","VENTURA","06111","Ventura County",34.143959,-119.183962,2020-08-02,2020-08-01
400627317,NA,2020,1608508800000,0.01,"CA","VENTURA","06111","Ventura County",34.45,-119.35,2020-12-21,2020-12-01
400626074,NA,2020,1585180800000,0.5,"CA","VENTURA","06111","Ventura County",34.4,-119.45,2020-03-26,2020-03-01
400626032,NA,2020,1591660800000,0.1,"CA","VENTURA","06111","Ventura County",34.5,-119.283333,2020-06-09,2020-06-01
400627231,NA,2020,1.606176e+12,0.01,"CA","VENTURA","06111","Ventura County",34.4,-119.416666,2020-11-24,2020-11-01
400732937,"EASY",2019,1572393600000,1806,"CA","Ventura","06111","Ventura County",34.2816667,-118.8030556,2019-10-30,2019-10-01
400732952,"MARIA",2019,1.57248e+12,9999,"CA","Ventura","06111","Ventura County",34.3372222,-119.05333329,2019-10-31,2019-10-01
400627522,NA,2020,1591574400000,0.1,"CA","VENTURA","06111","Ventura County",34.147422,-119.172262,2020-06-08,2020-06-01
400627995,"ARBOLES",2020,1592006400000,0.3,"CA","Ventura","06111","Ventura County",34.21311183,-118.8486433,2020-06-13,2020-06-01
400627996,"CROWN",2020,1598918400000,0.2,"CA","Ventura","06111","Ventura County",34.25503585,-118.67327327,2020-09-01,2020-09-01
400627998,"ELIZABETH",2020,1591747200000,300,"CA","Ventura","06111","Ventura County",34.30472702,-119.18334566,2020-06-10,2020-06-01
400628523,"GOLD",2020,1595030400000,0.1,"CA","Ventura","06111","Ventura County",34.70211488,-118.93361235,2020-07-18,2020-07-01
400628526,"REYES",2020,1.592784e+12,0.24,"CA","Ventura","06111","Ventura County",34.59317485,-119.3056124,2020-06-22,2020-06-01
400628531,"HOPPER",2020,1.60704e+12,0.5,"CA","Ventura","06111","Ventura County",34.47763486,-118.88421232,2020-12-04,2020-12-01
400628532,"LIME",2020,1591747200000,802,"CA","Ventura","06111","Ventura County",34.46250487,-118.7725123,2020-06-10,2020-06-01
400628533,"DOUGH",2020,1593475200000,0.1,"CA","Ventura","06111","Ventura County",34.48036091,-118.9174639,2020-06-30,2020-06-01
400628534,"LION",2020,1589500800000,0.1,"CA","Ventura","06111","Ventura County",34.53010485,-119.15081237,2020-05-15,2020-05-01
400628536,"HOLSER",2020,1597622400000,2151,"CA","Ventura","06111","Ventura County",34.44083816,-118.7461234,2020-08-17,2020-08-01
400628538,"GRASS",2020,1590710400000,0.1,"CA","Ventura","06111","Ventura County",34.50461483,-119.36671241,2020-05-29,2020-05-01
400628540,"VALLEY",2020,1604188800000,0.1,"CA","Ventura","06111","Ventura County",34.53331726,-119.18056064,2020-11-01,2020-11-01
400628542,"KUEHNER",2020,1.59408e+12,19.4,"CA","Ventura","06111","Ventura County",34.27158285,-118.65405627,2020-07-07,2020-07-01
400628543,"KUEHNER",2020,1591315200000,0.5,"CA","Ventura","06111","Ventura County",34.27845985,-118.65857027,2020-06-05,2020-06-01
400628545,"COCHRAN",2020,1.594512e+12,8.3,"CA","Ventura","06111","Ventura County",34.28076785,-118.67164227,2020-07-12,2020-07-01
400628546,"COVINGTON",2020,1599609600000,3.2,"CA","Ventura","06111","Ventura County",34.25431584,-118.75676528,2020-09-09,2020-09-01
400628549,"ARROYO",2020,1582675200000,0.2,"CA","Ventura","06111","Ventura County",34.27074185,-118.69758528,2020-02-26,2020-02-01
400628550,"CANYON",2020,1.59408e+12,0.5,"CA","Ventura","06111","Ventura County",34.23889185,-118.67046927,2020-07-07,2020-07-01
400628560,"LEWIS",2020,1595462400000,4,"CA","Ventura","06111","Ventura County",34.16156082,-119.04780932,2020-07-23,2020-07-01
400628561,"LYNN",2020,1591747200000,0.7,"CA","Ventura","06111","Ventura County",34.20424183,-118.8960053,2020-06-10,2020-06-01
400628562,"BRUSH",2020,1.599264e+12,0.25,"CA","Ventura","06111","Ventura County",34.12370282,-118.86367729,2020-09-05,2020-09-01
400627458,NA,2020,1602979200000,1,"CA","VENTURA","06111","Ventura County",34.147431,-119.174466,2020-10-18,2020-10-01
400627480,NA,2020,1595203200000,0.1,"CA","VENTURA","06111","Ventura County",34.416666,-119.316666,2020-07-20,2020-07-01
400628604,"PACIFIC",2020,1583107200000,0.1,"CA","Ventura","06111","Ventura County",34.06111591,-118.98140121,2020-03-02,2020-03-01
400628398,"NETTLE",2020,1.604016e+12,1.5,"CA","Ventura","06111","Ventura County",34.81327488,-119.1667124,2020-10-30,2020-10-01
